{"results": [{"fsq_id": "4e332ea1b3ad90171c62f2e3", "categories": [{"id": 19002, "name": "Bike Rental", "icon": {"prefix": "https://ss3.4sqi.net/img/categories_v2/shops/bikeshop_", "suffix": ".png"}}], "chains": [], "distance": 77, "geocodes": {"main": {"latitude": 43.653345, "longitude": -79.382554}, "roof": {"latitude": 43.653345, "longitude": -79.382554}}, "link": "/v3/places/4e332ea1b3ad90171c62f2e3", "location": {"address": "Bay St", "country": "CA", "cross_street": "at Albert St", "formatted_address": "Bay St (at Albert St), Toronto ON", "locality": "Toronto", "region": "ON"}, "name": "Bike Share Stand", "related_places": {}, "timezone": "America/Toronto"}, {"fsq_id": "4e332ef9b3ad90171c62f31d", "categories": [{"id": 19002, "name": "Bike Rental", "icon": {"prefix": "https://ss3.4sqi.net/img/categories_v2/shops/bikeshop_", "suffix": ".png"}}], "chains": [], "distance": 358, "geocodes": {"drop_off": {"latitude": 43.655528, "longitude": -79.38057}, "main": {"latitude": 43.655439, "longitude": -79.380783}, "roof": {"latitude": 43.655439, "longitude": -79.380783}}, "link": "/v3/places/4e332ef9b3ad90171c62f31d", "location": {"address": "Yonge St", "country": "CA", "cross_street": "at Dundas Sq", "formatted_address": "Yonge St (at Dundas Sq), Toronto ON", "locality": "Toronto", "region": "ON"}, "name": "Bike Share Stand", "related_places": {}, "timezone": "America/Toronto"}, {"fsq_id": "4e332f9fb3ad90171c62f353", "categories": [{"id": 19002, "name": "Bike Rental", "icon": {"prefix": "https://ss3.4sqi.net/img/categories_v2/shops/bikeshop_", "suffix": ".png"}}], "chains": [], "distance": 442, "geocodes": {"drop_off": {"latitude": 43.656785, "longitude": -79.382217}, "main": {"latitude": 43.656683, "longitude": -79.382197}, "roof": {"latitude": 43.656683, "longitude": -79.382197}}, "link": "/v3/places/4e332f9fb3ad90171c62f353", "location": {"address": "Edward St", "country": "CA", "cross_street": "at Yonge St", "formatted_address": "Edward St (at Yonge St), Toronto ON", "locality": "Toronto", "region": "ON"}, "name": "Bike Share Stand", "related_places": {}, "timezone": "America/Toronto"}, {"fsq_id": "4f258f72e4b006e5c34ac2e5", "categories": [{"id": 19002, "name": "Bike Rental", "icon": {"prefix": "https://ss3.4sqi.net/img/categories_v2/shops/bikeshop_", "suffix": ".png"}}], "chains": [], "distance": 458, "geocodes": {"drop_off": {"latitude": 43.654544, "longitude": -79.388363}, "main": {"latitude": 43.654418, "longitude": -79.388662}, "roof": {"latitude": 43.654418, "longitude": -79.388662}}, "link": "/v3/places/4f258f72e4b006e5c34ac2e5", "location": {"address": "550 University Ave", "country": "CA", "cross_street": "Elm", "formatted_address": "550 University Ave (Elm), Toronto ON M5G 2A2", "locality": "Toronto", "postcode": "M5G 2A2", "region": "ON"}, "name": "Bixi Bike Stand", "related_places": {}, "timezone": "America/Toronto"}, {"fsq_id": "4dd1b9d87d8b4c6585dcba56", "categories": [{"id": 19002, "name": "Bike Rental", "icon": {"prefix": "https://ss3.4sqi.net/img/categories_v2/shops/bikeshop_", "suffix": ".png"}}], "chains": [], "distance": 513, "geocodes": {"drop_off": {"latitude": 43.648539, "longitude": -79.380798}, "main": {"latitude": 43.648699, "longitude": -79.380833}, "roof": {"latitude": 43.648699, "longitude": -79.380833}}, "link": "/v3/places/4dd1b9d87d8b4c6585dcba56", "location": {"address": "King St W", "country": "CA", "cross_street": "at Bay St", "formatted_address": "King St W (at Bay St), Toronto ON", "locality": "Toronto", "region": "ON"}, "name": "Bixi Bike Stand", "related_places": {}, "timezone": "America/Toronto"}, {"fsq_id": "4dc221f6d22dd7df9aa314d1", "categories": [{"id": 19002, "name": "Bike Rental", "icon": {"prefix": "https://ss3.4sqi.net/img/categories_v2/shops/bikeshop_", "suffix": ".png"}}], "chains": [], "distance": 571, "geocodes": {"main": {"latitude": 43.648091, "longitude": -79.384569}, "roof": {"latitude": 43.648091, "longitude": -79.384569}}, "link": "/v3/places/4dc221f6d22dd7df9aa314d1", "location": {"address": "University Ave", "country": "CA", "cross_street": "btw King & Pearl", "formatted_address": "University Ave (btw King & Pearl), Toronto ON", "locality": "Toronto", "region": "ON"}, "name": "Bixi Bike Stand", "related_places": {}, "timezone": "America/Toronto"}, {"fsq_id": "4f77759be4b015efa5427a88", "categories": [{"id": 19002, "name": "Bike Rental", "icon": {"prefix": "https://ss3.4sqi.net/img/categories_v2/shops/bikeshop_", "suffix": ".png"}}], "chains": [], "distance": 584, "geocodes": {"main": {"latitude": 43.654343, "longitude": -79.390474}, "roof": {"latitude": 43.654343, "longitude": -79.390474}}, "link": "/v3/places/4f77759be4b015efa5427a88", "location": {"address": "275 Dundas St W", "country": "CA", "cross_street": "St. Patrick Street", "formatted_address": "275 Dundas St W (St. Patrick Street), Toronto ON M5T 3K1", "locality": "Toronto", "postcode": "M5T 3K1", "region": "ON"}, "name": "Toronto Bicycle Tours", "related_places": {}, "timezone": "America/Toronto"}, {"fsq_id": "4e1f04d1152098f789cb1f2d", "categories": [{"id": 19002, "name": "Bike Rental", "icon": {"prefix": "https://ss3.4sqi.net/img/categories_v2/shops/bikeshop_", "suffix": ".png"}}], "chains": [], "distance": 700, "geocodes": {"drop_off": {"latitude": 43.647226, "longitude": -79.38019}, "main": {"latitude": 43.647009, "longitude": -79.380143}, "roof": {"latitude": 43.647009, "longitude": -79.380143}}, "link": "/v3/places/4e1f04d1152098f789cb1f2d", "location": {"address": "Wellington St W", "country": "CA", "cross_street": "at Bay St", "formatted_address": "Wellington St W (at Bay St), Toronto ON", "locality": "Toronto", "region": "ON"}, "name": "Bike Share Stand", "related_places": {}, "timezone": "America/Toronto"}, {"fsq_id": "4e791075b993729c6ac82154", "categories": [{"id": 19002, "name": "Bike Rental", "icon": {"prefix": "https://ss3.4sqi.net/img/categories_v2/shops/bikeshop_", "suffix": ".png"}}], "chains": [], "distance": 754, "geocodes": {"main": {"latitude": 43.656996, "longitude": -79.375561}, "roof": {"latitude": 43.656996, "longitude": -79.375561}}, "link": "/v3/places/4e791075b993729c6ac82154", "location": {"address": "Mutual St", "country": "CA", "cross_street": "Dundas Street", "formatted_address": "Mutual St (Dundas Street), Toronto ON", "locality": "Toronto", "region": "ON"}, "name": "Bixi Bike Stand", "related_places": {}, "timezone": "America/Toronto"}, {"fsq_id": "4e13524e1fc73bbd6229fbb2", "categories": [{"id": 19002, "name": "Bike Rental", "icon": {"prefix": "https://ss3.4sqi.net/img/categories_v2/shops/bikeshop_", "suffix": ".png"}}], "chains": [], "distance": 812, "geocodes": {"drop_off": {"latitude": 43.659995, "longitude": -79.385496}, "main": {"latitude": 43.660113, "longitude": -79.385221}, "roof": {"latitude": 43.660113, "longitude": -79.385221}}, "link": "/v3/places/4e13524e1fc73bbd6229fbb2", "location": {"address": "Bay St", "country": "CA", "cross_street": "College", "formatted_address": "Bay St (College), Toronto ON", "locality": "Toronto", "region": "ON"}, "name": "Bike Share Stand", "related_places": {}, "timezone": "America/Toronto"}], "context": {"geo_bounds": {"circle": {"center": {"latitude": 43.65296807774091, "longitude": -79.38341829750141}, "radius": 1000}}}}